$GPRMC,003350.000,A,3725.3432,N,12205.7921,W,0.06,151.59,061007,,,D*7F
$GPRMC,003355.000,A,3725.3430,N,12205.7920,W,0.18,109.49,061007,,,D*7A
$GPRMC,003400.000,A,3725.3433,N,12205.7921,W,0.02,227.11,061007,,,D*76
$GPRMC,003405.000,A,3725.3433,N,12205.7921,W,0.17,103.32,061007,,,D*73
$GPRMC,003410.000,A,3725.3431,N,12205.7921,W,0.22,167.43,061007,,,D*77
$GPRMC,003415.000,A,3725.3427,N,12205.7921,W,0.23,246.49,061007,,,D*7E
$GPRMC,003420.000,A,3725.3423,N,12205.7917,W,0.16,74.88,061007,,,D*41
$GPRMC,003425.000,A,3725.3426,N,12205.7919,W,0.05,124.94,061007,,,D*74
$GPRMC,003430.000,A,3725.3429,N,12205.7919,W,0.15,77.12,061007,,,D*47
$GPRMC,003435.000,A,3725.3432,N,12205.7921,W,0.07,94.72,061007,,,D*4B
$GPRMC,003440.000,A,3725.3436,N,12205.7921,W,0.13,336.72,061007,,,D*73
$GPRMC,003445.000,A,3725.3440,N,12205.7953,W,2.72,278.90,061007,,,D*70
$GPRMC,003450.000,A,3725.3442,N,12205.7977,W,2.02,164.81,061007,,,D*79
$GPRMC,003455.000,A,3725.3380,N,12205.8008,W,8.28,200.23,061007,,,D*70
$GPRMC,003500.000,A,3725.3207,N,12205.8057,W,14.04,189.77,061007,,,D*45
$GPRMC,003505.000,A,3725.3032,N,12205.8094,W,11.67,205.32,061007,,,D*4D
$GPRMC,003510.000,A,3725.2988,N,12205.8295,W,17.09,271.31,061007,,,D*4D
$GPRMC,003515.000,A,3725.3005,N,12205.8672,W,25.02,273.74,061007,,,D*41
$GPRMC,003520.000,A,3725.3030,N,12205.9159,W,29.84,273.27,061007,,,D*4A
$GPRMC,003525.000,A,3725.3061,N,12205.9683,W,28.20,274.26,061007,,,D*42
$GPRMC,003530.000,A,3725.3092,N,12206.0150,W,25.25,274.96,061007,,,D*4A
$GPRMC,003535.000,A,3725.3124,N,12206.0503,W,12.55,276.56,061007,,,D*4C
$GPRMC,003540.000,A,3725.3135,N,12206.0637,W,3.99,272.32,061007,,,D*7C
$GPRMC,003545.000,A,3725.3140,N,12206.0701,W,2.80,273.59,061007,,,D*7A
$GPRMC,003550.000,A,3725.3143,N,12206.0734,W,0.84,266.99,061007,,,D*75
$GPRMC,003555.000,A,3725.3142,N,12206.0731,W,0.13,157.63,061007,,,D*7E
$GPRMC,003600.000,A,3725.3142,N,12206.0729,W,0.16,239.76,061007,,,D*7E
$GPRMC,003605.000,A,3725.3141,N,12206.0726,W,0.15,199.57,061007,,,D*7E
$GPRMC,003610.000,A,3725.3141,N,12206.0724,W,0.07,161.75,061007,,,D*7C
$GPRMC,003615.000,A,3725.3141,N,12206.0721,W,0.14,171.95,061007,,,D*71
$GPRMC,003620.000,A,3725.3141,N,12206.0718,W,0.12,188.87,061007,,,D*7E
$GPRMC,003625.000,A,3725.3141,N,12206.0716,W,0.14,164.43,061007,,,D*79
$GPRMC,003630.000,A,3725.3141,N,12206.0714,W,0.10,186.09,061007,,,D*79
$GPRMC,003635.000,A,3725.3142,N,12206.0716,W,0.09,224.65,061007,,,D*74
$GPRMC,003640.000,A,3725.3142,N,12206.0716,W,0.09,187.23,061007,,,D*7E
$GPRMC,003645.000,A,3725.3143,N,12206.0716,W,0.14,229.41,061007,,,D*75
$GPRMC,003650.000,A,3725.3143,N,12206.0716,W,0.14,195.40,061007,,,D*74
$GPRMC,003655.000,A,3725.3143,N,12206.0716,W,0.51,267.41,061007,,,D*7F
$GPRMC,003700.000,A,3725.3148,N,12206.0813,W,9.83,274.54,061007,,,D*7F
$GPRMC,003705.000,A,3725.3247,N,12206.0930,W,15.25,357.95,061007,,,D*4A
$GPRMC,003710.000,A,3725.3558,N,12206.0907,W,27.03,4.83,061007,,,D*44
$GPRMC,003715.000,A,3725.3993,N,12206.0862,W,34.76,4.78,061007,,,D*4C
$GPRMC,003720.000,A,3725.4514,N,12206.0802,W,39.38,5.62,061007,,,D*45
$GPRMC,003725.000,A,3725.5072,N,12206.0756,W,38.59,358.11,061007,,,D*43
$GPRMC,003730.000,A,3725.5581,N,12206.0877,W,36.13,344.59,061007,,,D*43
$GPRMC,003735.000,A,3725.6078,N,12206.1038,W,36.78,348.75,061007,,,D*4B
$GPRMC,003740.000,A,3725.6604,N,12206.1021,W,37.66,14.75,061007,,,D*78
$GPRMC,003745.000,A,3725.7064,N,12206.0817,W,32.70,20.79,061007,,,D*79
$GPRMC,003750.000,A,3725.7482,N,12206.0613,W,31.70,20.73,061007,,,D*72
$GPRMC,003755.000,A,3725.7841,N,12206.0458,W,25.05,16.94,061007,,,D*72
$GPRMC,003800.000,A,3725.8137,N,12206.0368,W,16.01,11.76,061007,,,D*71
$GPRMC,003805.000,A,3725.8266,N,12206.0341,W,2.45,9.89,061007,,,D*74
$GPRMC,003810.000,A,3725.8273,N,12206.0340,W,1.42,8.42,061007,,,D*77
$GPRMC,003815.000,A,3725.8287,N,12206.0340,W,3.02,8.77,061007,,,D*79
$GPRMC,003820.000,A,3725.8402,N,12206.0321,W,11.90,7.87,061007,,,D*4B
$GPRMC,003825.000,A,3725.8520,N,12206.0422,W,12.90,274.31,061007,,,D*43
$GPRMC,003830.000,A,3725.8386,N,12206.0610,W,17.45,193.03,061007,,,D*48
$GPRMC,003835.000,A,3725.8082,N,12206.0693,W,25.06,193.69,061007,,,D*4B
$GPRMC,003840.000,A,3725.7732,N,12206.0836,W,24.74,216.89,061007,,,D*4F
$GPRMC,003845.000,A,3725.7672,N,12206.1208,W,23.64,296.05,061007,,,D*43
$GPRMC,003850.000,A,3725.7944,N,12206.1530,W,30.80,314.88,061007,,,D*47
$GPRMC,003855.000,A,3725.8272,N,12206.1893,W,31.57,318.18,061007,,,D*49
$GPRMC,003900.000,A,3725.8605,N,12206.2264,W,31.13,318.65,061007,,,D*47
$GPRMC,003905.000,A,3725.8939,N,12206.2625,W,32.39,318.52,061007,,,A*49
$GPRMC,003910.000,A,3725.9297,N,12206.2994,W,33.37,319.89,061007,,,A*4E
$GPRMC,003915.000,A,3725.9666,N,12206.3378,W,34.92,320.36,061007,,,A*4E
$GPRMC,003920.000,A,3726.0048,N,12206.3777,W,35.91,319.96,061007,,,A*41
$GPRMC,003925.000,A,3726.0439,N,12206.4186,W,36.78,319.98,061007,,,A*43
$GPRMC,003930.000,A,3726.0837,N,12206.4602,W,37.26,320.27,061007,,,A*4A
$GPRMC,003935.000,A,3726.1240,N,12206.5024,W,37.88,320.27,061007,,,A*43
$GPRMC,003940.000,A,3726.1647,N,12206.5449,W,37.95,319.99,061007,,,A*4E
$GPRMC,003945.000,A,3726.2055,N,12206.5874,W,37.24,320.06,061007,,,A*49
$GPRMC,003950.000,A,3726.2438,N,12206.6274,W,34.50,320.25,061007,,,A*4A
$GPRMC,003955.000,A,3726.2805,N,12206.6661,W,34.75,319.90,061007,,,A*4E
$GPRMC,004000.000,A,3726.3181,N,12206.7054,W,35.63,320.23,061007,,,A*41
$GPRMC,004005.000,A,3726.3570,N,12206.7462,W,36.84,320.29,061007,,,A*4F
$GPRMC,004010.000,A,3726.3961,N,12206.7872,W,35.85,320.09,061007,,,A*4A
$GPRMC,004015.000,A,3726.4343,N,12206.8276,W,36.84,320.17,061007,,,A*4E
$GPRMC,004020.000,A,3726.4759,N,12206.8712,W,40.53,320.65,061007,,,A*4E
$GPRMC,004025.000,A,3726.5190,N,12206.9164,W,39.54,320.13,061007,,,A*47
$GPRMC,004030.000,A,3726.5607,N,12206.9605,W,38.84,319.99,061007,,,A*4E
$GPRMC,004035.000,A,3726.6010,N,12207.0030,W,36.82,320.30,061007,,,A*41
$GPRMC,004040.000,A,3726.6413,N,12207.0416,W,35.63,328.90,061007,,,A*4A
$GPRMC,004045.000,A,3726.6861,N,12207.0652,W,35.49,342.93,061007,,,A*43
$GPRMC,004050.000,A,3726.7346,N,12207.0842,W,37.15,342.57,061007,,,A*44
$GPRMC,004055.000,A,3726.7834,N,12207.1033,W,36.68,342.14,061007,,,A*4C
$GPRMC,004100.000,A,3726.8328,N,12207.1225,W,36.73,343.04,061007,,,D*4E
$GPRMC,004105.000,A,3726.8795,N,12207.1405,W,33.44,343.08,061007,,,D*40
$GPRMC,004110.000,A,3726.9211,N,12207.1570,W,28.00,343.17,061007,,,D*4B
$GPRMC,004115.000,A,3726.9507,N,12207.1678,W,18.59,345.92,061007,,,D*41
$GPRMC,004120.000,A,3726.9639,N,12207.1722,W,3.24,343.37,061007,,,D*7E
$GPRMC,004125.000,A,3726.9641,N,12207.1725,W,0.21,154.73,061007,,,D*71
$GPRMC,004130.000,A,3726.9634,N,12207.1722,W,0.16,105.89,061007,,,D*75
$GPRMC,004135.000,A,3726.9630,N,12207.1720,W,0.04,133.97,061007,,,D*7F
$GPRMC,004140.000,A,3726.9627,N,12207.1718,W,0.16,107.47,061007,,,D*79
$GPRMC,004145.000,A,3726.9625,N,12207.1716,W,0.14,148.73,061007,,,D*7E
$GPRMC,004150.000,A,3726.9621,N,12207.1715,W,0.09,142.18,061007,,,D*76
$GPRMC,004155.000,A,3726.9620,N,12207.1714,W,0.10,95.75,061007,,,D*4B
$GPRMC,004200.000,A,3726.9618,N,12207.1714,W,0.07,135.28,061007,,,D*76
$GPRMC,004205.000,A,3726.9617,N,12207.1713,W,0.14,86.20,061007,,,D*48
$GPRMC,004210.000,A,3726.9616,N,12207.1713,W,0.05,130.34,061007,,,D*74
$GPRMC,004215.000,A,3726.9614,N,12207.1714,W,0.08,120.53,061007,,,D*79
$GPRMC,004220.000,A,3726.9612,N,12207.1714,W,0.09,147.27,061007,,,D*7A
$GPRMC,004225.000,A,3726.9612,N,12207.1715,W,0.12,118.20,061007,,,D*79
$GPRMC,004230.000,A,3726.9612,N,12207.1714,W,0.12,90.61,061007,,,D*48
$GPRMC,004235.000,A,3726.9612,N,12207.1715,W,0.10,156.15,061007,,,D*76
$GPRMC,004240.000,A,3726.9612,N,12207.1715,W,0.13,104.74,061007,,,D*77
$GPRMC,004245.000,A,3726.9617,N,12207.1716,W,2.21,343.16,061007,,,D*72
$GPRMC,004250.000,A,3726.9756,N,12207.1772,W,15.37,342.52,061007,,,D*40
$GPRMC,004255.000,A,3726.9950,N,12207.1942,W,16.40,298.08,061007,,,D*4A
$GPRMC,004300.000,A,3726.9896,N,12207.2215,W,18.97,241.60,061007,,,D*44
$GPRMC,004305.000,A,3726.9801,N,12207.2558,W,22.01,268.09,061007,,,D*43
$GPRMC,004310.000,A,3726.9908,N,12207.2943,W,24.76,304.28,061007,,,D*47
$GPRMC,004315.000,A,3727.0088,N,12207.3347,W,27.35,295.83,061007,,,D*48
$GPRMC,004320.000,A,3727.0117,N,12207.3855,W,28.97,271.02,061007,,,D*45
$GPRMC,004325.000,A,3727.0211,N,12207.4306,W,22.94,303.62,061007,,,D*44
$GPRMC,004330.000,A,3727.0358,N,12207.4491,W,8.59,313.76,061007,,,D*78
$GPRMC,004335.000,A,3727.0409,N,12207.4550,W,2.33,313.55,061007,,,D*75
$GPRMC,004340.000,A,3727.0433,N,12207.4578,W,5.75,314.25,061007,,,D*71
$GPRMC,004345.000,A,3727.0533,N,12207.4704,W,12.55,314.18,061007,,,D*46
$GPRMC,004350.000,A,3727.0676,N,12207.4892,W,16.68,312.98,061007,,,D*44
$GPRMC,004355.000,A,3727.0835,N,12207.5103,W,15.11,313.21,061007,,,D*46
$GPRMC,004400.000,A,3727.0969,N,12207.5285,W,10.26,312.85,061007,,,D*4A
$GPRMC,004405.000,A,3727.1006,N,12207.5334,W,0.33,319.16,061007,,,D*71
$GPRMC,004410.000,A,3727.1007,N,12207.5333,W,0.19,144.98,061007,,,D*77
$GPRMC,004415.000,A,3727.1005,N,12207.5330,W,0.05,106.63,061007,,,D*7C
$GPRMC,004420.000,A,3727.1006,N,12207.5327,W,0.05,92.53,061007,,,D*40
$GPRMC,004425.000,A,3727.1005,N,12207.5323,W,0.17,148.57,061007,,,D*73
$GPRMC,004430.000,A,3727.1037,N,12207.5355,W,8.70,314.52,061007,,,D*70
$GPRMC,004435.000,A,3727.1168,N,12207.5516,W,16.83,312.51,061007,,,D*49
$GPRMC,004440.000,A,3727.1344,N,12207.5787,W,23.06,309.71,061007,,,D*4E
$GPRMC,004445.000,A,3727.1572,N,12207.6136,W,27.67,308.29,061007,,,D*48
$GPRMC,004450.000,A,3727.1821,N,12207.6558,W,31.56,306.08,061007,,,D*43
$GPRMC,004455.000,A,3727.2083,N,12207.7008,W,30.81,306.19,061007,,,D*4F
$GPRMC,004500.000,A,3727.2324,N,12207.7424,W,27.68,306.75,061007,,,D*41
$GPRMC,004505.000,A,3727.2519,N,12207.7754,W,16.50,305.19,061007,,,D*48
$GPRMC,004510.000,A,3727.2570,N,12207.7849,W,0.13,151.16,061007,,,D*7C
$GPRMC,004515.000,A,3727.2619,N,12207.7927,W,14.27,311.27,061007,,,D*4A
$GPRMC,004520.000,A,3727.2786,N,12207.8214,W,23.53,303.48,061007,,,D*42
$GPRMC,004525.000,A,3727.2980,N,12207.8564,W,25.03,306.82,061007,,,D*4F
$GPRMC,004530.000,A,3727.3199,N,12207.8936,W,27.48,306.29,061007,,,D*4D
$GPRMC,004535.000,A,3727.3433,N,12207.9339,W,28.66,306.28,061007,,,D*4B
$GPRMC,004540.000,A,3727.3666,N,12207.9740,W,28.04,306.12,061007,,,D*4C
$GPRMC,004545.000,A,3727.3886,N,12208.0118,W,25.22,306.50,061007,,,D*4B
$GPRMC,004550.000,A,3727.4091,N,12208.0461,W,23.34,306.68,061007,,,D*47
$GPRMC,004555.000,A,3727.4291,N,12208.0747,W,19.76,317.26,061007,,,D*42
$GPRMC,004600.000,A,3727.4497,N,12208.1015,W,24.00,309.28,061007,,,D*4E
$GPRMC,004605.000,A,3727.4711,N,12208.1376,W,26.83,305.61,061007,,,D*48
$GPRMC,004610.000,A,3727.4937,N,12208.1760,W,26.40,305.68,061007,,,D*43
$GPRMC,004615.000,A,3727.5142,N,12208.2112,W,23.46,306.19,061007,,,D*4B
$GPRMC,004620.000,A,3727.5326,N,12208.2431,W,21.96,304.30,061007,,,D*4F
$GPRMC,004625.000,A,3727.5515,N,12208.2693,W,20.21,323.71,061007,,,D*4B
$GPRMC,004630.000,A,3727.5788,N,12208.2812,W,21.00,352.36,061007,,,D*49
$GPRMC,004635.000,A,3727.6048,N,12208.2846,W,14.79,351.69,061007,,,D*44
$GPRMC,004640.000,A,3727.6217,N,12208.2861,W,6.38,359.46,061007,,,D*78
$GPRMC,004645.000,A,3727.6322,N,12208.2880,W,10.02,331.10,061007,,,D*46
$GPRMC,004650.000,A,3727.6394,N,12208.3010,W,6.76,277.11,061007,,,D*79
$GPRMC,004655.000,A,3727.6382,N,12208.3058,W,1.58,256.67,061007,,,D*7E
$GPRMC,004700.000,A,3727.6253,N,12208.3024,W,6.34,164.31,061007,,,A*70
$GPRMC,004715.000,A,3727.5854,N,12208.3345,W,5.00,267.98,061007,,,A*79
$GPRMC,004720.000,A,3727.5993,N,12208.3323,W,6.50,26.91,061007,,,A*4D
$GPRMC,004725.000,A,3727.6123,N,12208.3159,W,13.14,44.68,061007,,,A*71
